$GPGGA,104817.75,3916.13798,N,00726.54705,W,1,04,4.33,354.6,M,48.9,M,,*4F
$GPGGA,104818.00,3916.13797,N,00726.54711,W,1,04,4.33,354.6,M,48.9,M,,*48
$GPGGA,104818.25,3916.13796,N,00726.54716,W,1,04,4.33,354.5,M,48.9,M,,*4A
$GPGGA,104818.50,3916.13795,N,00726.54721,W,1,04,4.33,354.6,M,48.9,M,,*4C
$GPGGA,104818.75,3916.13794,N,00726.54728,W,1,04,4.33,354.6,M,48.9,M,,*43
$GPGGA,104819.00,3916.13793,N,00726.54737,W,1,04,4.33,354.6,M,48.9,M,,*49
$GPGGA,104819.25,3916.13795,N,00726.54746,W,1,04,4.33,354.7,M,48.9,M,,*4F
$GPGGA,104819.50,3916.13796,N,00726.54760,W,1,04,4.33,354.8,M,48.9,M,,*45
$GPGGA,104819.75,3916.13804,N,00726.54777,W,1,04,4.33,354.9,M,48.9,M,,*41
$GPGGA,104820.00,3916.13813,N,00726.54792,W,1,04,4.33,354.8,M,48.9,M,,*45
$GPGGA,104820.25,3916.13827,N,00726.54809,W,1,04,4.33,354.8,M,48.9,M,,*48
$GPGGA,104820.50,3916.13840,N,00726.54824,W,1,04,4.33,354.9,M,48.9,M,,*45
$GPGGA,104820.75,3916.13852,N,00726.54839,W,1,04,4.33,355.0,M,48.9,M,,*45
$GPGGA,104821.00,3916.13870,N,00726.54849,W,1,04,4.33,355.0,M,48.9,M,,*41
$GPGGA,104821.25,3916.13882,N,00726.54857,W,1,04,4.33,354.9,M,48.9,M,,*4C
$GPGGA,104821.50,3916.13894,N,00726.54864,W,1,04,4.33,354.8,M,48.9,M,,*48
$GPGGA,104821.75,3916.13905,N,00726.54872,W,1,04,4.33,354.8,M,48.9,M,,*41
$GPGGA,104822.00,3916.13916,N,00726.54877,W,1,04,4.33,354.7,M,48.9,M,,*48
$GPGGA,104822.25,3916.13926,N,00726.54882,W,1,04,4.33,354.6,M,48.9,M,,*47
$GPGGA,104822.50,3916.13945,N,00726.54882,W,1,04,4.33,354.6,M,48.9,M,,*40
$GPGGA,104822.75,3916.13955,N,00726.54878,W,1,04,4.33,354.5,M,48.9,M,,*40
$GPGGA,104823.00,3916.13969,N,00726.54875,W,1,04,4.33,354.7,M,48.9,M,,*43
$GPGGA,104823.25,3916.13983,N,00726.54870,W,1,04,4.33,354.7,M,48.9,M,,*45
$GPGGA,104823.50,3916.13998,N,00726.54861,W,1,04,4.33,354.7,M,48.9,M,,*4D
$GPGGA,104823.75,3916.14011,N,00726.54855,W,1,04,4.33,354.8,M,48.9,M,,*4D
$GPGGA,104824.00,3916.14029,N,00726.54845,W,1,04,4.33,354.8,M,48.9,M,,*42
$GPGGA,104824.25,3916.14052,N,00726.54834,W,1,04,4.33,355.0,M,48.9,M,,*46
$GPGGA,104824.50,3916.14067,N,00726.54820,W,1,04,4.33,354.9,M,48.9,M,,*4F
$GPGGA,104824.75,3916.14085,N,00726.54799,W,1,04,4.33,355.0,M,48.9,M,,*41
$GPGGA,104825.00,3916.14106,N,00726.54773,W,1,04,4.33,354.8,M,48.9,M,,*45
$GPGGA,104825.25,3916.14125,N,00726.54749,W,1,04,4.33,354.9,M,48.9,M,,*4B
$GPGGA,104825.50,3916.14147,N,00726.54718,W,1,04,4.33,354.8,M,48.9,M,,*48
$GPGGA,104825.75,3916.14165,N,00726.54690,W,1,04,4.33,354.7,M,48.9,M,,*41
$GPGGA,104826.00,3916.14186,N,00726.54654,W,1,04,4.33,354.6,M,48.9,M,,*44
$GPGGA,104826.25,3916.14206,N,00726.54625,W,1,04,4.33,354.3,M,48.9,M,,*4B
$GPGGA,104826.50,3916.14226,N,00726.54595,W,1,04,4.33,354.0,M,48.9,M,,*40
$GPGGA,104826.75,3916.14247,N,00726.54567,W,1,04,4.33,353.8,M,48.9,M,,*42
$GPGGA,104827.00,3916.14268,N,00726.54539,W,1,04,4.33,353.6,M,48.9,M,,*49
$GPGGA,104827.25,3916.14292,N,00726.54511,W,1,04,4.33,353.3,M,48.9,M,,*44
$GPGGA,104827.50,3916.14319,N,00726.54475,W,1,04,4.33,353.0,M,48.9,M,,*44
$GPGGA,104827.75,3916.14343,N,00726.54443,W,1,04,4.33,352.7,M,48.9,M,,*4F
$GPGGA,104828.00,3916.14367,N,00726.54410,W,1,04,4.33,352.5,M,48.9,M,,*40
$GPGGA,104828.25,3916.14388,N,00726.54379,W,1,04,4.33,352.3,M,48.9,M,,*48
$GPGGA,104828.50,3916.14416,N,00726.54344,W,1,04,4.33,351.9,M,48.9,M,,*4D
$GPGGA,104828.75,3916.14443,N,00726.54318,W,1,04,4.33,351.4,M,48.9,M,,*4E
$GPGGA,104829.00,3916.14469,N,00726.54282,W,1,04,4.32,350.9,M,48.9,M,,*4A
$GPGGA,104829.25,3916.14496,N,00726.54244,W,1,04,4.32,350.4,M,48.9,M,,*4A
$GPGGA,104829.50,3916.14529,N,00726.54201,W,1,04,4.32,349.9,M,48.9,M,,*49
$GPGGA,104829.75,3916.14558,N,00726.54161,W,1,04,4.32,349.4,M,48.9,M,,*40
$GPGGA,104830.00,3916.14584,N,00726.54123,W,1,04,4.32,349.1,M,48.9,M,,*48
$GPGGA,104830.25,3916.14611,N,00726.54084,W,1,04,4.32,348.7,M,48.9,M,,*4B
$GPGGA,104830.50,3916.14641,N,00726.54047,W,1,04,4.32,348.3,M,48.9,M,,*47
$GPGGA,104830.75,3916.14667,N,00726.54011,W,1,04,4.32,348.0,M,48.9,M,,*44
$GPGGA,104831.00,3916.14696,N,00726.53976,W,1,04,4.32,347.8,M,48.9,M,,*41
$GPGGA,104831.25,3916.14728,N,00726.53939,W,1,04,4.32,347.5,M,48.9,M,,*44
$GPGGA,104831.50,3916.14753,N,00726.53912,W,1,04,4.32,347.4,M,48.9,M,,*42
$GPGGA,104831.75,3916.14760,N,00726.53876,W,1,04,4.32,347.5,M,48.9,M,,*47
$GPGGA,104832.00,3916.14787,N,00726.53836,W,1,04,4.32,347.7,M,48.9,M,,*49
$GPGGA,104832.25,3916.14817,N,00726.53784,W,1,04,4.32,347.7,M,48.9,M,,*4E
$GPGGA,104832.50,3916.14850,N,00726.53745,W,1,04,4.32,347.6,M,48.9,M,,*43
$GPGGA,104832.75,3916.14883,N,00726.53696,W,1,04,4.32,347.5,M,48.9,M,,*46
$GPGGA,104833.00,3916.14918,N,00726.53653,W,1,04,4.32,347.2,M,48.9,M,,*48
$GPGGA,104833.25,3916.14951,N,00726.53615,W,1,04,4.32,347.0,M,48.9,M,,*42
$GPGGA,104833.50,3916.14981,N,00726.53575,W,1,04,4.32,346.9,M,48.9,M,,*40
$GPGGA,104833.75,3916.15012,N,00726.53541,W,1,04,4.32,346.9,M,48.9,M,,*42
$GPGGA,104834.00,3916.15039,N,00726.53514,W,1,04,4.32,346.9,M,48.9,M,,*4E
$GPGGA,104834.25,3916.15071,N,00726.53500,W,1,04,4.32,346.5,M,48.9,M,,*4C
$GPGGA,104834.50,3916.15103,N,00726.53476,W,1,04,4.32,346.3,M,48.9,M,,*4C
$GPGGA,104834.75,3916.15132,N,00726.53481,W,1,04,4.32,345.7,M,48.9,M,,*46
$GPGGA,104835.00,3916.15160,N,00726.53467,W,1,04,4.32,345.7,M,48.9,M,,*4A
$GPGGA,104835.25,3916.15187,N,00726.53499,W,1,04,4.32,345.0,M,48.9,M,,*42
$GPGGA,104835.50,3916.15218,N,00726.53531,W,1,04,4.32,344.2,M,48.9,M,,*45
$GPGGA,104835.75,3916.15251,N,00726.53538,W,1,04,4.32,344.6,M,48.9,M,,*42
$GPGGA,104836.00,3916.15423,N,00726.53593,W,1,04,4.32,345.8,M,48.9,M,,*4E
$GPGGA,104836.25,3916.15575,N,00726.53649,W,1,04,4.32,347.0,M,48.9,M,,*45
$GPGGA,104836.50,3916.15700,N,00726.53708,W,1,04,4.32,347.9,M,48.9,M,,*4A
$GPGGA,104836.75,3916.15728,N,00726.53797,W,1,04,4.32,346.9,M,48.9,M,,*40
$GPGGA,104837.00,3916.15743,N,00726.53882,W,1,04,4.32,345.8,M,48.9,M,,*47
$GPGGA,104837.25,3916.15741,N,00726.53972,W,1,04,4.32,344.4,M,48.9,M,,*41
$GPGGA,104837.50,3916.15740,N,00726.54057,W,1,04,4.32,343.3,M,48.9,M,,*4B
$GPGGA,104837.75,3916.15746,N,00726.54143,W,1,04,4.32,342.6,M,48.9,M,,*4A
$GPGGA,104838.00,3916.15759,N,00726.54220,W,1,04,4.32,342.1,M,48.9,M,,*48
$GPGGA,104838.25,3916.15776,N,00726.54299,W,1,04,4.32,341.8,M,48.9,M,,*4A
$GPGGA,104838.50,3916.15791,N,00726.54374,W,1,04,4.32,341.6,M,48.9,M,,*4D
$GPGGA,104838.75,3916.15805,N,00726.54442,W,1,04,4.32,341.5,M,48.9,M,,*49
$GPGGA,104839.00,3916.15831,N,00726.54504,W,1,04,4.32,341.6,M,48.9,M,,*4D
$GPGGA,104839.25,3916.15857,N,00726.54563,W,1,04,4.32,341.8,M,48.9,M,,*45
$GPGGA,104839.50,3916.15892,N,00726.54619,W,1,04,4.32,342.0,M,48.9,M,,*4B
$GPGGA,104839.75,3916.15925,N,00726.54671,W,1,04,4.32,342.1,M,48.9,M,,*4E
$GPGGA,104840.00,3916.15962,N,00726.54716,W,1,04,4.32,342.3,M,48.9,M,,*43
$GPGGA,104840.25,3916.15998,N,00726.54756,W,1,04,4.32,342.4,M,48.9,M,,*42
$GPGGA,104840.50,3916.16039,N,00726.54796,W,1,04,4.32,342.5,M,48.9,M,,*4C
$GPGGA,104840.75,3916.16069,N,00726.54830,W,1,04,4.32,342.5,M,48.9,M,,*4D
$GPGGA,104841.00,3916.16112,N,00726.54861,W,1,04,4.32,342.7,M,48.9,M,,*45
$GPGGA,104841.25,3916.16153,N,00726.54880,W,1,04,4.32,342.5,M,48.9,M,,*4A
$GPGGA,104841.50,3916.16196,N,00726.54907,W,1,04,4.32,342.8,M,48.9,M,,*42
$GPGGA,104841.75,3916.16242,N,00726.54920,W,1,04,4.32,342.8,M,48.9,M,,*4A
$GPGGA,104842.00,3916.16292,N,00726.54930,W,1,04,4.32,343.0,M,48.9,M,,*4E
$GPGGA,104842.25,3916.16345,N,00726.54929,W,1,04,4.32,343.1,M,48.9,M,,*4B
$GPGGA,104842.50,3916.16398,N,00726.54923,W,1,04,4.32,343.2,M,48.9,M,,*40
$GPGGA,104842.75,3916.16455,N,00726.54908,W,1,04,4.32,343.1,M,48.9,M,,*4B
$GPGGA,104843.00,3916.16517,N,00726.54880,W,1,04,4.32,343.0,M,48.9,M,,*4F
$GPGGA,104843.25,3916.16581,N,00726.54846,W,1,04,4.32,342.8,M,48.9,M,,*44
$GPGGA,104843.50,3916.16643,N,00726.54815,W,1,04,4.32,342.8,M,48.9,M,,*4D
$GPGGA,104843.75,3916.16705,N,00726.54776,W,1,04,4.32,342.6,M,48.9,M,,*4D
$GPGGA,104844.00,3916.16767,N,00726.54735,W,1,04,4.32,342.4,M,48.9,M,,*49
$GPGGA,104844.25,3916.16830,N,00726.54692,W,1,04,4.32,342.2,M,48.9,M,,*49
$GPGGA,104844.50,3916.16895,N,00726.54644,W,1,04,4.32,342.0,M,48.9,M,,*4D
$GPGGA,104844.75,3916.16959,N,00726.54603,W,1,04,4.32,341.9,M,48.9,M,,*42
$GPGGA,104845.00,3916.17022,N,00726.54558,W,1,04,4.32,341.7,M,48.9,M,,*46
$GPGGA,104845.25,3916.17115,N,00726.54523,W,1,04,4.32,341.8,M,48.9,M,,*47
$GPGGA,104845.50,3916.17213,N,00726.54489,W,1,04,4.32,342.0,M,48.9,M,,*4A
$GPGGA,104845.75,3916.17305,N,00726.54459,W,1,04,4.32,342.1,M,48.9,M,,*47
$GPGGA,104846.00,3916.17407,N,00726.54426,W,1,04,4.32,342.2,M,48.9,M,,*48
$GPGGA,104846.25,3916.17504,N,00726.54393,W,1,04,4.32,342.2,M,48.9,M,,*44
$GPGGA,104846.50,3916.17606,N,00726.54366,W,1,04,4.32,342.3,M,48.9,M,,*4C
$GPGGA,104846.75,3916.17707,N,00726.54342,W,1,04,4.32,342.4,M,48.9,M,,*4A
$GPGGA,104847.00,3916.17803,N,00726.54318,W,1,04,4.32,342.6,M,48.9,M,,*4F
$GPGGA,104847.25,3916.17905,N,00726.54294,W,1,04,4.32,342.6,M,48.9,M,,*4A
$GPGGA,104847.50,3916.18006,N,00726.54271,W,1,04,4.32,342.8,M,48.9,M,,*48
$GPGGA,104847.75,3916.18107,N,00726.54245,W,1,04,4.32,342.8,M,48.9,M,,*48
$GPGGA,104848.00,3916.18211,N,00726.54223,W,1,04,4.32,342.9,M,48.9,M,,*40
$GPGGA,104848.25,3916.18284,N,00726.54194,W,1,04,4.32,342.8,M,48.9,M,,*45
$GPGGA,104848.50,3916.18392,N,00726.54174,W,1,04,4.32,343.0,M,48.9,M,,*46
$GPGGA,104848.75,3916.18500,N,00726.54156,W,1,04,4.32,343.2,M,48.9,M,,*4E
$GPGGA,104849.00,3916.18608,N,00726.54134,W,1,04,4.32,343.3,M,48.9,M,,*43
$GPGGA,104849.25,3916.18715,N,00726.54111,W,1,04,4.32,343.4,M,48.9,M,,*49
$GPGGA,104849.50,3916.18820,N,00726.54088,W,1,04,4.32,343.4,M,48.9,M,,*43
$GPGGA,104849.75,3916.18925,N,00726.54065,W,1,04,4.32,343.5,M,48.9,M,,*42
$GPGGA,104850.00,3916.19026,N,00726.54043,W,1,04,4.32,343.4,M,48.9,M,,*46
$GPGGA,104850.25,3916.19129,N,00726.54025,W,1,04,4.32,343.5,M,48.9,M,,*4E
$GPGGA,104850.50,3916.19230,N,00726.54009,W,1,04,4.32,343.6,M,48.9,M,,*4A
$GPGGA,104850.75,3916.19338,N,00726.53998,W,1,04,4.32,343.8,M,48.9,M,,*4C
$GPGGA,104851.00,3916.19432,N,00726.53990,W,1,04,4.32,343.9,M,48.9,M,,*4B
$GPGGA,104851.25,3916.19533,N,00726.53984,W,1,04,4.32,344.1,M,48.9,M,,*46
$GPGGA,104851.50,3916.19623,N,00726.53975,W,1,04,4.31,344.1,M,48.9,M,,*4B
$GPGGA,104851.75,3916.19708,N,00726.53961,W,1,04,4.31,344.2,M,48.9,M,,*42
$GPGGA,104852.00,3916.19802,N,00726.53943,W,1,04,4.31,344.3,M,48.9,M,,*47
$GPGGA,104852.25,3916.19876,N,00726.53916,W,1,04,4.31,344.2,M,48.9,M,,*42
$GPGGA,104852.50,3916.19962,N,00726.53886,W,1,04,4.31,344.3,M,48.9,M,,*4D
$GPGGA,104852.75,3916.20044,N,00726.53848,W,1,04,4.31,344.3,M,48.9,M,,*4F
$GPGGA,104853.00,3916.20127,N,00726.53805,W,1,04,4.31,344.4,M,48.9,M,,*46
$GPGGA,104853.25,3916.20210,N,00726.53760,W,1,04,4.31,344.6,M,48.9,M,,*48
$GPGGA,104853.50,3916.20295,N,00726.53705,W,1,04,4.31,344.8,M,48.9,M,,*4A
$GPGGA,104853.75,3916.20378,N,00726.53647,W,1,04,4.31,344.9,M,48.9,M,,*49
$GPGGA,104854.00,3916.20459,N,00726.53584,W,1,04,4.31,345.2,M,48.9,M,,*4E
$GPGGA,104854.25,3916.20540,N,00726.53513,W,1,04,4.31,345.3,M,48.9,M,,*4F
$GPGGA,104854.50,3916.20584,N,00726.53423,W,1,04,4.31,345.1,M,48.9,M,,*45
$GPGGA,104854.75,3916.20613,N,00726.53327,W,1,04,4.31,344.9,M,48.9,M,,*45
$GPGGA,104855.00,3916.20637,N,00726.53223,W,1,04,4.31,344.7,M,48.9,M,,*4B
$GPGGA,104855.25,3916.20653,N,00726.53111,W,1,04,4.31,344.7,M,48.9,M,,*4C
$GPGGA,104855.50,3916.20668,N,00726.52992,W,1,04,4.31,344.5,M,48.9,M,,*46
$GPGGA,104855.75,3916.20674,N,00726.52868,W,1,04,4.31,344.4,M,48.9,M,,*49
$GPGGA,104856.00,3916.20672,N,00726.52740,W,1,04,4.31,344.2,M,48.9,M,,*4D
$GPGGA,104856.25,3916.20659,N,00726.52610,W,1,04,4.31,344.0,M,48.9,M,,*45
$GPGGA,104856.50,3916.20635,N,00726.52475,W,1,04,4.31,343.9,M,48.9,M,,*42
$GPGGA,104856.75,3916.20601,N,00726.52346,W,1,04,4.31,344.0,M,48.9,M,,*4B
$GPGGA,104857.00,3916.20556,N,00726.52211,W,1,04,4.31,343.9,M,48.9,M,,*44
$GPGGA,104857.25,3916.20502,N,00726.52083,W,1,04,4.31,344.0,M,48.9,M,,*45
$GPGGA,104857.50,3916.20452,N,00726.51964,W,1,04,4.31,344.4,M,48.9,M,,*44
$GPGGA,104857.75,3916.20394,N,00726.51840,W,1,04,4.31,344.5,M,48.9,M,,*48
$GPGGA,104858.00,3916.20334,N,00726.51718,W,1,04,4.31,344.7,M,48.9,M,,*4F
$GPGGA,104858.25,3916.20274,N,00726.51605,W,1,04,4.31,345.1,M,48.9,M,,*47
$GPGGA,104858.50,3916.20203,N,00726.51492,W,1,04,4.31,345.4,M,48.9,M,,*4C
$GPGGA,104858.75,3916.20140,N,00726.51367,W,1,04,4.31,345.7,M,48.9,M,,*41
$GPGGA,104859.00,3916.20074,N,00726.51249,W,1,04,4.31,346.3,M,48.9,M,,*4E
$GPGGA,104859.25,3916.20019,N,00726.51125,W,1,04,4.31,346.7,M,48.9,M,,*4F
$GPGGA,104859.50,3916.19968,N,00726.51012,W,1,04,4.31,347.4,M,48.9,M,,*4F
$GPGGA,104859.75,3916.19944,N,00726.50918,W,1,04,4.31,348.6,M,48.9,M,,*49
$GPGGA,104900.00,3916.19921,N,00726.50832,W,1,04,4.31,350.0,M,48.9,M,,*43
$GPGGA,104900.25,3916.19898,N,00726.50752,W,1,04,4.31,351.4,M,48.9,M,,*4B
$GPGGA,104900.50,3916.19871,N,00726.50679,W,1,04,4.31,353.0,M,48.9,M,,*40
$GPGGA,104900.75,3916.19839,N,00726.50613,W,1,04,4.31,354.6,M,48.9,M,,*46
$GPGGA,104901.00,3916.19804,N,00726.50551,W,1,04,4.31,356.4,M,48.9,M,,*4E
$GPGGA,104901.25,3916.19725,N,00726.50467,W,1,04,4.31,357.7,M,48.9,M,,*43
$GPGGA,104901.50,3916.19647,N,00726.50394,W,1,04,4.31,359.3,M,48.9,M,,*45
$GPGGA,104901.75,3916.19568,N,00726.50319,W,1,04,4.31,360.6,M,48.9,M,,*46
$GPGGA,104902.00,3916.19483,N,00726.50243,W,1,04,4.31,361.8,M,48.9,M,,*42
$GPGGA,104902.25,3916.19392,N,00726.50171,W,1,04,4.31,362.9,M,48.9,M,,*42
$GPGGA,104902.50,3916.19294,N,00726.50100,W,1,04,4.31,363.8,M,48.9,M,,*41
$GPGGA,104902.75,3916.19197,N,00726.50030,W,1,04,4.31,364.8,M,48.9,M,,*43
$GPGGA,104903.00,3916.19008,N,00726.50011,W,1,04,4.31,363.0,M,48.9,M,,*4B
$GPGGA,104903.25,3916.18836,N,00726.49980,W,1,04,4.31,362.0,M,48.9,M,,*40
$GPGGA,104903.50,3916.18670,N,00726.49940,W,1,04,4.31,361.1,M,48.9,M,,*40
$GPGGA,104903.75,3916.18507,N,00726.49897,W,1,04,4.31,360.6,M,48.9,M,,*49
$GPGGA,104904.00,3916.18349,N,00726.49851,W,1,04,4.31,360.3,M,48.9,M,,*4F
$GPGGA,104904.25,3916.18195,N,00726.49801,W,1,04,4.31,360.1,M,48.9,M,,*4C
$GPGGA,104904.50,3916.18044,N,00726.49748,W,1,04,4.31,360.0,M,48.9,M,,*40
$GPGGA,104904.75,3916.17887,N,00726.49692,W,1,04,4.31,359.9,M,48.9,M,,*4A
$GPGGA,104905.00,3916.17739,N,00726.49636,W,1,04,4.31,359.8,M,48.9,M,,*4C
$GPGGA,104905.25,3916.17591,N,00726.49580,W,1,04,4.31,359.8,M,48.9,M,,*45
$GPGGA,104905.50,3916.17448,N,00726.49524,W,1,04,4.31,359.8,M,48.9,M,,*4C
$GPGGA,104905.75,3916.17306,N,00726.49465,W,1,04,4.31,359.9,M,48.9,M,,*43
$GPGGA,104906.00,3916.17163,N,00726.49407,W,1,04,4.31,360.0,M,48.9,M,,*44
$GPGGA,104906.25,3916.17024,N,00726.49345,W,1,04,4.31,360.1,M,48.9,M,,*41
$GPGGA,104906.50,3916.16889,N,00726.49279,W,1,04,4.31,360.2,M,48.9,M,,*40
$GPGGA,104906.75,3916.16760,N,00726.49214,W,1,04,4.31,360.3,M,48.9,M,,*45
$GPGGA,104907.00,3916.16631,N,00726.49141,W,1,04,4.31,360.4,M,48.9,M,,*47
$GPGGA,104907.25,3916.16510,N,00726.49062,W,1,04,4.31,360.5,M,48.9,M,,*41
$GPGGA,104907.50,3916.16434,N,00726.48986,W,1,04,4.31,361.1,M,48.9,M,,*43
$GPGGA,104907.75,3916.16369,N,00726.48906,W,1,04,4.31,361.8,M,48.9,M,,*4A
$GPGGA,104908.00,3916.16301,N,00726.48826,W,1,04,4.31,362.1,M,48.9,M,,*40
$GPGGA,104908.25,3916.16234,N,00726.48743,W,1,04,4.31,362.2,M,48.9,M,,*4F
$GPGGA,104908.50,3916.16169,N,00726.48656,W,1,04,4.31,362.0,M,48.9,M,,*41
$GPGGA,104908.75,3916.16106,N,00726.48568,W,1,04,4.31,361.9,M,48.9,M,,*4B
$GPGGA,104909.00,3916.16041,N,00726.48478,W,1,04,4.31,361.7,M,48.9,M,,*44
$GPGGA,104909.25,3916.15974,N,00726.48386,W,1,04,4.31,361.5,M,48.9,M,,*4B
$GPGGA,104909.50,3916.15907,N,00726.48290,W,1,04,4.31,361.3,M,48.9,M,,*4D
$GPGGA,104909.75,3916.15848,N,00726.48191,W,1,04,4.31,360.9,M,48.9,M,,*49
$GPGGA,104910.00,3916.15787,N,00726.48087,W,1,04,4.31,360.4,M,48.9,M,,*44
$GPGGA,104910.25,3916.15724,N,00726.47980,W,1,04,4.31,359.9,M,48.9,M,,*4C
$GPGGA,104910.50,3916.15666,N,00726.47867,W,1,04,4.31,359.5,M,48.9,M,,*4D
$GPGGA,104910.75,3916.15610,N,00726.47747,W,1,04,4.31,359.1,M,48.9,M,,*42
$GPGGA,104911.00,3916.15558,N,00726.47623,W,1,04,4.31,358.5,M,48.9,M,,*48
$GPGGA,104911.25,3916.15505,N,00726.47498,W,1,04,4.31,357.9,M,48.9,M,,*46
$GPGGA,104911.50,3916.15448,N,00726.47363,W,1,04,4.31,357.6,M,48.9,M,,*40
$GPGGA,104911.75,3916.15389,N,00726.47229,W,1,04,4.31,357.5,M,48.9,M,,*41
$GPGGA,104912.00,3916.15321,N,00726.47085,W,1,04,4.31,357.4,M,48.9,M,,*47
$GPGGA,104912.25,3916.15262,N,00726.46935,W,1,04,4.31,357.1,M,48.9,M,,*40
$GPGGA,104912.50,3916.15198,N,00726.46786,W,1,04,4.31,356.9,M,48.9,M,,*4B
$GPGGA,104912.75,3916.15134,N,00726.46634,W,1,04,4.31,356.9,M,48.9,M,,*42
$GPGGA,104913.00,3916.15067,N,00726.46482,W,1,04,4.31,356.9,M,48.9,M,,*49
$GPGGA,104913.25,3916.15001,N,00726.46328,W,1,04,4.31,356.9,M,48.9,M,,*49
$GPGGA,104913.50,3916.14936,N,00726.46172,W,1,04,4.31,356.9,M,48.9,M,,*4A
$GPGGA,104913.75,3916.14815,N,00726.45991,W,1,04,4.30,356.6,M,48.9,M,,*45
$GPGGA,104914.00,3916.14690,N,00726.45813,W,1,04,4.30,356.6,M,48.9,M,,*48
$GPGGA,104914.25,3916.14582,N,00726.45644,W,1,04,4.30,356.7,M,48.9,M,,*42
$GPGGA,104914.50,3916.14481,N,00726.45478,W,1,04,4.30,356.9,M,48.9,M,,*41
$GPGGA,104914.75,3916.14382,N,00726.45308,W,1,04,4.30,357.0,M,48.9,M,,*4A
$GPGGA,104915.00,3916.14292,N,00726.45139,W,1,04,4.30,357.0,M,48.9,M,,*49
$GPGGA,104915.25,3916.14240,N,00726.44946,W,1,04,4.30,358.5,M,48.9,M,,*4A
$GPGGA,104915.50,3916.14185,N,00726.44758,W,1,04,4.30,359.5,M,48.9,M,,*42
$GPGGA,104915.75,3916.14127,N,00726.44573,W,1,04,4.30,360.3,M,48.9,M,,*4A
$GPGGA,104916.00,3916.14064,N,00726.44392,W,1,04,4.30,360.9,M,48.9,M,,*4E
$GPGGA,104916.25,3916.14005,N,00726.44214,W,1,04,4.30,361.5,M,48.9,M,,*4C
$GPGGA,104916.50,3916.13938,N,00726.44033,W,1,04,4.30,362.0,M,48.9,M,,*4F
$GPGGA,104916.75,3916.13875,N,00726.43855,W,1,04,4.30,362.3,M,48.9,M,,*4C
$GPGGA,104917.00,3916.13806,N,00726.43677,W,1,04,4.30,362.6,M,48.9,M,,*40
$GPGGA,104917.25,3916.13743,N,00726.43501,W,1,04,4.30,362.9,M,48.9,M,,*44
$GPGGA,104917.50,3916.13674,N,00726.43321,W,1,04,4.30,363.0,M,48.9,M,,*4F
$GPGGA,104917.75,3916.13611,N,00726.43143,W,1,04,4.30,363.2,M,48.9,M,,*4F
$GPGGA,104918.00,3916.13541,N,00726.42966,W,1,04,4.30,363.4,M,48.9,M,,*4C
$GPGGA,104918.25,3916.13470,N,00726.42793,W,1,04,4.30,363.6,M,48.9,M,,*4E
$GPGGA,104918.50,3916.13400,N,00726.42620,W,1,04,4.30,363.8,M,48.9,M,,*4C
$GPGGA,104918.75,3916.13331,N,00726.42445,W,1,04,4.30,363.9,M,48.9,M,,*4E
$GPGGA,104919.00,3916.13263,N,00726.42273,W,1,04,4.30,364.0,M,48.9,M,,*46
$GPGGA,104919.25,3916.13193,N,00726.42099,W,1,04,4.30,364.1,M,48.9,M,,*4A
$GPGGA,104919.50,3916.13126,N,00726.41925,W,1,04,4.30,364.1,M,48.9,M,,*4B
$GPGGA,104919.75,3916.13053,N,00726.41753,W,1,04,4.30,364.1,M,48.9,M,,*40
$GPGGA,104920.00,3916.12986,N,00726.41585,W,1,04,4.30,364.2,M,48.9,M,,*42
$GPGGA,104920.25,3916.12912,N,00726.41416,W,1,04,4.30,364.1,M,48.9,M,,*40
$GPGGA,104920.50,3916.12849,N,00726.41248,W,1,04,4.30,364.3,M,48.9,M,,*42
$GPGGA,104920.75,3916.12778,N,00726.41081,W,1,04,4.30,364.3,M,48.9,M,,*4F
$GPGGA,104921.00,3916.12706,N,00726.40912,W,1,04,4.30,364.2,M,48.9,M,,*46
$GPGGA,104921.25,3916.12636,N,00726.40747,W,1,04,4.30,364.2,M,48.9,M,,*4D
$GPGGA,104921.50,3916.12571,N,00726.40580,W,1,04,4.30,364.3,M,48.9,M,,*47
$GPGGA,104921.75,3916.12505,N,00726.40414,W,1,04,4.30,364.3,M,48.9,M,,*4F
$GPGGA,104922.00,3916.12447,N,00726.40250,W,1,04,4.30,364.5,M,48.9,M,,*49
$GPGGA,104922.25,3916.12380,N,00726.40086,W,1,04,4.30,364.5,M,48.9,M,,*4B
$GPGGA,104922.50,3916.12316,N,00726.39926,W,1,04,4.30,364.5,M,48.9,M,,*4B
$GPGGA,104922.75,3916.12256,N,00726.39766,W,1,04,4.30,364.5,M,48.9,M,,*43
$GPGGA,104923.00,3916.12198,N,00726.39610,W,1,04,4.30,364.6,M,48.9,M,,*42
$GPGGA,104923.25,3916.12133,N,00726.39456,W,1,04,4.30,364.5,M,48.9,M,,*47
$GPGGA,104923.50,3916.12067,N,00726.39307,W,1,04,4.30,364.5,M,48.9,M,,*46
$GPGGA,104923.75,3916.12004,N,00726.39164,W,1,04,4.30,364.5,M,48.9,M,,*43
$GPGGA,104924.00,3916.11936,N,00726.39022,W,1,04,4.30,364.4,M,48.9,M,,*4F
$GPGGA,104924.25,3916.11870,N,00726.38887,W,1,04,4.30,364.5,M,48.9,M,,*4C
$GPGGA,104924.50,3916.11804,N,00726.38758,W,1,04,4.30,364.5,M,48.9,M,,*40
$GPGGA,104924.75,3916.11733,N,00726.38633,W,1,04,4.30,364.5,M,48.9,M,,*40
$GPGGA,104925.00,3916.11664,N,00726.38514,W,1,04,4.30,364.6,M,48.9,M,,*45
$GPGGA,104925.25,3916.11596,N,00726.38399,W,1,04,4.30,364.7,M,48.9,M,,*4E
$GPGGA,104925.50,3916.11546,N,00726.38279,W,1,04,4.30,365.3,M,48.9,M,,*4B
$GPGGA,104925.75,3916.11496,N,00726.38164,W,1,04,4.30,366.1,M,48.9,M,,*4E
$GPGGA,104926.00,3916.11450,N,00726.38053,W,1,04,4.30,367.0,M,48.9,M,,*40
$GPGGA,104926.25,3916.11405,N,00726.37947,W,1,04,4.30,368.1,M,48.9,M,,*4A
$GPGGA,104926.50,3916.11358,N,00726.37845,W,1,04,4.30,369.2,M,48.9,M,,*46
$GPGGA,104926.75,3916.11309,N,00726.37752,W,1,04,4.30,370.3,M,48.9,M,,*45
$GPGGA,104927.00,3916.11257,N,00726.37663,W,1,04,4.30,371.5,M,48.9,M,,*48
$GPGGA,104927.25,3916.11212,N,00726.37585,W,1,04,4.30,372.8,M,48.9,M,,*4B
$GPGGA,104927.50,3916.11163,N,00726.37514,W,1,04,4.30,374.0,M,48.9,M,,*4A
$GPGGA,104927.75,3916.11107,N,00726.37455,W,1,04,4.30,375.0,M,48.9,M,,*4A
$GPGGA,104928.00,3916.11036,N,00726.37408,W,1,04,4.30,375.5,M,48.9,M,,*49
$GPGGA,104928.25,3916.10830,N,00726.37426,W,1,04,4.30,372.7,M,48.9,M,,*48
$GPGGA,104928.50,3916.10759,N,00726.37393,W,1,04,4.30,373.3,M,48.9,M,,*46
$GPGGA,104928.75,3916.10586,N,00726.37403,W,1,04,4.30,371.3,M,48.9,M,,*4D
$GPGGA,104929.00,3916.10433,N,00726.37405,W,1,04,4.30,370.0,M,48.9,M,,*45
$GPGGA,104929.25,3916.10297,N,00726.37401,W,1,04,4.30,369.0,M,48.9,M,,*46
$GPGGA,104929.50,3916.10181,N,00726.37395,W,1,04,4.30,368.4,M,48.9,M,,*4F
$GPGGA,104929.75,3916.10071,N,00726.37378,W,1,04,4.30,367.9,M,48.9,M,,*47
$GPGGA,104930.00,3916.09968,N,00726.37355,W,1,04,4.30,367.6,M,48.9,M,,*44
$GPGGA,104930.25,3916.09875,N,00726.37321,W,1,04,4.30,367.2,M,48.9,M,,*49
$GPGGA,104930.50,3916.09792,N,00726.37279,W,1,04,4.30,367.1,M,48.9,M,,*42
$GPGGA,104930.75,3916.09710,N,00726.37227,W,1,04,4.30,367.0,M,48.9,M,,*45
$GPGGA,104931.00,3916.09639,N,00726.37168,W,1,04,4.30,367.0,M,48.9,M,,*44
$GPGGA,104931.25,3916.09571,N,00726.37102,W,1,04,4.30,367.1,M,48.9,M,,*41
$GPGGA,104931.50,3916.09499,N,00726.37030,W,1,04,4.30,367.0,M,48.9,M,,*45
$GPGGA,104931.75,3916.09422,N,00726.36963,W,1,04,4.30,366.7,M,48.9,M,,*4A
$GPGGA,104932.00,3916.09350,N,00726.36892,W,1,04,4.30,366.2,M,48.9,M,,*43
$GPGGA,104932.25,3916.09279,N,00726.36821,W,1,04,4.30,365.6,M,48.9,M,,*41
$GPGGA,104932.50,3916.09212,N,00726.36747,W,1,04,4.30,365.1,M,48.9,M,,*46
$GPGGA,104932.75,3916.09147,N,00726.36670,W,1,04,4.30,364.6,M,48.9,M,,*41
$GPGGA,104933.00,3916.09081,N,00726.36577,W,1,04,4.30,364.0,M,48.9,M,,*4B
$GPGGA,104933.25,3916.09029,N,00726.36480,W,1,04,4.30,363.6,M,48.9,M,,*46
$GPGGA,104933.50,3916.09048,N,00726.36347,W,1,04,4.30,364.7,M,48.9,M,,*49
$GPGGA,104933.75,3916.09065,N,00726.36252,W,1,04,4.30,366.3,M,48.9,M,,*42
$GPGGA,104934.00,3916.09088,N,00726.36169,W,1,04,4.30,367.9,M,48.9,M,,*44
$GPGGA,104934.25,3916.09125,N,00726.36088,W,1,04,4.30,369.4,M,48.9,M,,*48
$GPGGA,104934.50,3916.09164,N,00726.36006,W,1,04,4.30,370.9,M,48.9,M,,*4C
$GPGGA,104934.75,3916.09202,N,00726.35922,W,1,04,4.30,372.0,M,48.9,M,,*4F
$GPGGA,104935.00,3916.09234,N,00726.35840,W,1,04,4.30,372.7,M,48.9,M,,*4B
$GPGGA,104935.25,3916.09276,N,00726.35762,W,1,04,4.30,373.3,M,48.9,M,,*40
$GPGGA,104935.50,3916.09323,N,00726.35686,W,1,04,4.30,373.8,M,48.9,M,,*43
$GPGGA,104935.75,3916.09357,N,00726.35615,W,1,04,4.30,374.0,M,48.9,M,,*42
$GPGGA,104936.00,3916.09403,N,00726.35551,W,1,04,4.30,374.2,M,48.9,M,,*44
$GPGGA,104936.25,3916.09447,N,00726.35503,W,1,04,4.29,374.7,M,48.9,M,,*49
$GPGGA,104936.50,3916.09500,N,00726.35464,W,1,04,4.29,375.2,M,48.9,M,,*4D
$GPGGA,104936.75,3916.09559,N,00726.35430,W,1,04,4.29,375.8,M,48.9,M,,*4D
$GPGGA,104937.00,3916.09619,N,00726.35404,W,1,04,4.29,376.4,M,48.9,M,,*41
$GPGGA,104937.25,3916.09687,N,00726.35385,W,1,04,4.29,377.0,M,48.9,M,,*4A
$GPGGA,104937.50,3916.09726,N,00726.35393,W,1,04,4.29,377.2,M,48.9,M,,*47
$GPGGA,104937.75,3916.09789,N,00726.35397,W,1,04,4.29,377.5,M,48.9,M,,*46
$GPGGA,104938.00,3916.09853,N,00726.35407,W,1,04,4.29,377.9,M,48.9,M,,*41
$GPGGA,104938.25,3916.09913,N,00726.35427,W,1,04,4.29,378.3,M,48.9,M,,*44
$GPGGA,104938.50,3916.09982,N,00726.35441,W,1,04,4.29,378.7,M,48.9,M,,*4A
$GPGGA,104938.75,3916.10052,N,00726.35456,W,1,04,4.29,379.0,M,48.9,M,,*41
$GPGGA,104939.00,3916.10119,N,00726.35467,W,1,04,4.29,379.2,M,48.9,M,,*4C
$GPGGA,104939.25,3916.10187,N,00726.35471,W,1,04,4.29,379.3,M,48.9,M,,*4A
$GPGGA,104939.50,3916.10254,N,00726.35469,W,1,04,4.29,379.3,M,48.9,M,,*4C
$GPGGA,104939.75,3916.10328,N,00726.35468,W,1,04,4.29,379.5,M,48.9,M,,*46
$GPGGA,104940.00,3916.10398,N,00726.35457,W,1,04,4.29,379.7,M,48.9,M,,*4F
$GPGGA,104940.25,3916.10474,N,00726.35431,W,1,04,4.29,379.7,M,48.9,M,,*4D
$GPGGA,104940.50,3916.10554,N,00726.35401,W,1,04,4.29,379.7,M,48.9,M,,*4F
$GPGGA,104940.75,3916.10631,N,00726.35357,W,1,04,4.29,379.8,M,48.9,M,,*43
$GPGGA,104941.00,3916.10708,N,00726.35300,W,1,04,4.29,379.8,M,48.9,M,,*49
$GPGGA,104941.25,3916.10775,N,00726.35239,W,1,04,4.29,379.7,M,48.9,M,,*40
$GPGGA,104941.50,3916.10838,N,00726.35169,W,1,04,4.29,379.7,M,48.9,M,,*42
$GPGGA,104941.75,3916.10876,N,00726.35105,W,1,04,4.29,379.0,M,48.9,M,,*42
$GPGGA,104942.00,3916.10906,N,00726.35035,W,1,04,4.29,378.2,M,48.9,M,,*44
$GPGGA,104942.25,3916.10927,N,00726.34955,W,1,04,4.29,377.2,M,48.9,M,,*41
$GPGGA,104942.50,3916.10935,N,00726.34869,W,1,04,4.29,376.2,M,48.9,M,,*4F
$GPGGA,104942.75,3916.10937,N,00726.34777,W,1,04,4.29,375.2,M,48.9,M,,*49
$GPGGA,104943.00,3916.10938,N,00726.34687,W,1,04,4.29,374.5,M,48.9,M,,*4D
$GPGGA,104943.25,3916.10935,N,00726.34586,W,1,04,4.29,373.7,M,48.9,M,,*40
$GPGGA,104943.50,3916.10982,N,00726.34457,W,1,04,4.29,374.5,M,48.9,M,,*46
$GPGGA,104943.75,3916.11013,N,00726.34331,W,1,04,4.29,375.2,M,48.9,M,,*40
$GPGGA,104944.00,3916.11024,N,00726.34206,W,1,04,4.29,375.6,M,48.9,M,,*40
$GPGGA,104944.25,3916.11011,N,00726.34077,W,1,04,4.29,375.9,M,48.9,M,,*4A
$GPGGA,104944.50,3916.11008,N,00726.33957,W,1,04,4.29,376.9,M,48.9,M,,*4F
$GPGGA,104944.75,3916.10994,N,00726.33836,W,1,04,4.29,377.7,M,48.9,M,,*4C
$GPGGA,104945.00,3916.10962,N,00726.33716,W,1,04,4.29,378.3,M,48.9,M,,*40
$GPGGA,104945.25,3916.10937,N,00726.33598,W,1,04,4.29,379.0,M,48.9,M,,*41
$GPGGA,104945.50,3916.10900,N,00726.33475,W,1,04,4.29,379.4,M,48.9,M,,*41
$GPGGA,104945.75,3916.10856,N,00726.33361,W,1,04,4.29,379.9,M,48.9,M,,*4B
$GPGGA,104946.00,3916.10810,N,00726.33237,W,1,04,4.29,380.2,M,48.9,M,,*47
$GPGGA,104946.25,3916.10762,N,00726.33113,W,1,04,4.29,380.6,M,48.9,M,,*4B
$GPGGA,104946.50,3916.10707,N,00726.32984,W,1,04,4.29,380.8,M,48.9,M,,*43
$GPGGA,104946.75,3916.10653,N,00726.32855,W,1,04,4.29,381.1,M,48.9,M,,*41
$GPGGA,104947.00,3916.10597,N,00726.32719,W,1,04,4.29,381.4,M,48.9,M,,*4B
$GPGGA,104947.25,3916.10544,N,00726.32584,W,1,04,4.29,381.7,M,48.9,M,,*47
$GPGGA,104947.50,3916.10491,N,00726.32443,W,1,04,4.29,382.0,M,48.9,M,,*42
$GPGGA,104947.75,3916.10435,N,00726.32301,W,1,04,4.29,382.4,M,48.9,M,,*4E
$GPGGA,104948.00,3916.10377,N,00726.32151,W,1,04,4.29,382.5,M,48.9,M,,*44
$GPGGA,104948.25,3916.10323,N,00726.32003,W,1,04,4.29,382.8,M,48.9,M,,*49
$GPGGA,104948.50,3916.10257,N,00726.31852,W,1,04,4.29,383.0,M,48.9,M,,*4F
$GPGGA,104948.75,3916.10198,N,00726.31697,W,1,04,4.29,383.1,M,48.9,M,,*4E
$GPGGA,104949.00,3916.10131,N,00726.31541,W,1,04,4.29,383.3,M,48.9,M,,*44
$GPGGA,104949.25,3916.10068,N,00726.31377,W,1,04,4.29,383.4,M,48.9,M,,*4A
$GPGGA,104949.50,3916.10006,N,00726.31213,W,1,04,4.29,383.5,M,48.9,M,,*42
$GPGGA,104949.75,3916.09941,N,00726.31046,W,1,04,4.29,383.6,M,48.9,M,,*46
$GPGGA,104950.00,3916.09875,N,00726.30878,W,1,04,4.29,383.7,M,48.9,M,,*4F
$GPGGA,104950.25,3916.09803,N,00726.30708,W,1,04,4.29,383.7,M,48.9,M,,*41
$GPGGA,104950.50,3916.09731,N,00726.30537,W,1,04,4.29,383.7,M,48.9,M,,*43
$GPGGA,104950.75,3916.09658,N,00726.30365,W,1,04,4.29,383.8,M,48.9,M,,*44
$GPGGA,104951.00,3916.09584,N,00726.30191,W,1,04,4.29,383.9,M,48.9,M,,*4D
$GPGGA,104951.25,3916.09547,N,00726.30022,W,1,04,4.29,384.4,M,48.9,M,,*46
$GPGGA,104951.50,3916.09509,N,00726.29853,W,1,04,4.29,384.7,M,48.9,M,,*4B
$GPGGA,104951.75,3916.09471,N,00726.29684,W,1,04,4.29,385.3,M,48.9,M,,*43
$GPGGA,104952.00,3916.09433,N,00726.29512,W,1,04,4.29,385.6,M,48.9,M,,*4D
$GPGGA,104952.25,3916.09396,N,00726.29337,W,1,04,4.29,386.0,M,48.9,M,,*46
$GPGGA,104952.50,3916.09358,N,00726.29160,W,1,04,4.29,386.3,M,48.9,M,,*45
$GPGGA,104952.75,3916.09318,N,00726.28985,W,1,04,4.29,386.8,M,48.9,M,,*4F
$GPGGA,104953.00,3916.09279,N,00726.28805,W,1,04,4.29,387.1,M,48.9,M,,*4B
$GPGGA,104953.25,3916.09235,N,00726.28627,W,1,04,4.29,387.5,M,48.9,M,,*4E
$GPGGA,104953.50,3916.09190,N,00726.28448,W,1,04,4.29,387.9,M,48.9,M,,*47
$GPGGA,104953.75,3916.09141,N,00726.28273,W,1,04,4.29,388.4,M,48.9,M,,*40
$GPGGA,104954.00,3916.09092,N,00726.28096,W,1,04,4.29,388.9,M,48.9,M,,*4E
$GPGGA,104954.25,3916.09041,N,00726.27917,W,1,04,4.29,389.4,M,48.9,M,,*44
$GPGGA,104954.50,3916.08990,N,00726.27739,W,1,04,4.29,389.8,M,48.9,M,,*4C
$GPGGA,104954.75,3916.08939,N,00726.27558,W,1,04,4.29,390.1,M,48.9,M,,*4C
$GPGGA,104955.00,3916.08885,N,00726.27377,W,1,04,4.29,390.6,M,48.9,M,,*45
$GPGGA,104955.25,3916.08836,N,00726.27190,W,1,04,4.29,390.8,M,48.9,M,,*4F
$GPGGA,104955.50,3916.08780,N,00726.27007,W,1,04,4.29,391.2,M,48.9,M,,*4B
$GPGGA,104955.75,3916.08725,N,00726.26826,W,1,04,4.29,391.5,M,48.9,M,,*4E
$GPGGA,104956.00,3916.08672,N,00726.26645,W,1,04,4.29,391.8,M,48.9,M,,*4A
$GPGGA,104956.25,3916.08615,N,00726.26469,W,1,04,4.29,392.3,M,48.9,M,,*48
$GPGGA,104956.50,3916.08558,N,00726.26293,W,1,04,4.29,392.8,M,48.9,M,,*48
$GPGGA,104956.75,3916.08501,N,00726.26119,W,1,04,4.29,393.2,M,48.9,M,,*49
$GPGGA,104957.00,3916.08444,N,00726.25942,W,1,04,4.29,393.5,M,48.9,M,,*48
$GPGGA,104957.25,3916.08388,N,00726.25766,W,1,04,4.29,393.8,M,48.9,M,,*4D
$GPGGA,104957.50,3916.08333,N,00726.25591,W,1,04,4.29,394.2,M,48.9,M,,*48
$GPGGA,104957.75,3916.08275,N,00726.25414,W,1,04,4.29,394.6,M,48.9,M,,*44
$GPGGA,104958.00,3916.08216,N,00726.25238,W,1,04,4.29,395.0,M,48.9,M,,*43
$GPGGA,104958.25,3916.08157,N,00726.25062,W,1,04,4.29,395.2,M,48.9,M,,*4D
$GPGGA,104958.50,3916.08095,N,00726.24886,W,1,04,4.28,395.4,M,48.9,M,,*44
$GPGGA,104958.75,3916.08035,N,00726.24710,W,1,04,4.28,395.5,M,48.9,M,,*48
$GPGGA,104959.00,3916.07971,N,00726.24537,W,1,04,4.28,395.8,M,48.9,M,,*47
$GPGGA,104959.25,3916.07909,N,00726.24366,W,1,04,4.28,396.1,M,48.9,M,,*47
$GPGGA,104959.50,3916.07847,N,00726.24197,W,1,04,4.28,396.4,M,48.9,M,,*47
$GPGGA,104959.75,3916.07786,N,00726.24025,W,1,04,4.28,396.5,M,48.9,M,,*4B
$GPGGA,105000.00,3916.07722,N,00726.23854,W,1,04,4.28,396.9,M,48.9,M,,*46
$GPGGA,105000.25,3916.07660,N,00726.23681,W,1,04,4.28,397.2,M,48.9,M,,*4A
$GPGGA,105000.50,3916.07600,N,00726.23506,W,1,04,4.28,397.4,M,48.9,M,,*44
$GPGGA,105000.75,3916.07537,N,00726.23335,W,1,04,4.28,397.7,M,48.9,M,,*41
$GPGGA,105001.00,3916.07479,N,00726.23159,W,1,04,4.28,397.8,M,48.9,M,,*4E
$GPGGA,105001.25,3916.07418,N,00726.22986,W,1,04,4.28,398.0,M,48.9,M,,*42
$GPGGA,105001.50,3916.07353,N,00726.22817,W,1,04,4.28,398.2,M,48.9,M,,*43
$GPGGA,105001.75,3916.07290,N,00726.22647,W,1,04,4.28,398.5,M,48.9,M,,*46
$GPGGA,105002.00,3916.07226,N,00726.22477,W,1,04,4.28,398.7,M,48.9,M,,*49
$GPGGA,105002.25,3916.07160,N,00726.22314,W,1,04,4.28,399.1,M,48.9,M,,*4A
$GPGGA,105002.50,3916.07095,N,00726.22148,W,1,04,4.28,399.4,M,48.9,M,,*4D
$GPGGA,105002.75,3916.07029,N,00726.21988,W,1,04,4.28,399.8,M,48.9,M,,*46
$GPGGA,105003.00,3916.06962,N,00726.21825,W,1,04,4.28,400.1,M,48.9,M,,*4A
$GPGGA,105003.25,3916.06900,N,00726.21659,W,1,04,4.28,400.3,M,48.9,M,,*4E
$GPGGA,105003.50,3916.06839,N,00726.21494,W,1,04,4.28,400.4,M,48.9,M,,*43
$GPGGA,105003.75,3916.06780,N,00726.21331,W,1,04,4.28,400.6,M,48.9,M,,*43
$GPGGA,105004.00,3916.06716,N,00726.21169,W,1,04,4.28,400.9,M,48.9,M,,*49
$GPGGA,105004.25,3916.06646,N,00726.21009,W,1,04,4.28,401.2,M,48.9,M,,*47
$GPGGA,105004.50,3916.06581,N,00726.20851,W,1,04,4.28,401.5,M,48.9,M,,*4E
$GPGGA,105004.75,3916.06517,N,00726.20694,W,1,04,4.28,401.8,M,48.9,M,,*4C
$GPGGA,105005.00,3916.06453,N,00726.20537,W,1,04,4.28,402.0,M,48.9,M,,*4F
$GPGGA,105005.25,3916.06390,N,00726.20396,W,1,04,4.28,401.6,M,48.9,M,,*48
$GPGGA,105005.50,3916.06325,N,00726.20237,W,1,04,4.28,401.9,M,48.9,M,,*41
$GPGGA,105005.75,3916.06261,N,00726.20075,W,1,04,4.28,402.3,M,48.9,M,,*4A
$GPGGA,105006.00,3916.06193,N,00726.19915,W,1,04,4.28,402.7,M,48.9,M,,*44
$GPGGA,105006.25,3916.06130,N,00726.19755,W,1,04,4.28,403.0,M,48.9,M,,*46
$GPGGA,105006.50,3916.06066,N,00726.19593,W,1,04,4.28,403.4,M,48.9,M,,*4A
$GPGGA,105006.75,3916.06006,N,00726.19435,W,1,04,4.28,403.5,M,48.9,M,,*47
$GPGGA,105007.00,3916.05943,N,00726.19277,W,1,04,4.28,403.8,M,48.9,M,,*42
$GPGGA,105007.25,3916.05884,N,00726.19116,W,1,04,4.28,403.9,M,48.9,M,,*4A
$GPGGA,105007.50,3916.05823,N,00726.18958,W,1,04,4.28,404.0,M,48.9,M,,*48
$GPGGA,105007.75,3916.05762,N,00726.18800,W,1,04,4.28,404.2,M,48.9,M,,*4B
$GPGGA,105008.00,3916.05704,N,00726.18651,W,1,04,4.28,403.6,M,48.9,M,,*4F
$GPGGA,105008.25,3916.05645,N,00726.18489,W,1,04,4.28,403.4,M,48.9,M,,*49
$GPGGA,105008.50,3916.05587,N,00726.18318,W,1,04,4.28,403.2,M,48.9,M,,*4F
$GPGGA,105008.75,3916.05520,N,00726.18138,W,1,04,4.28,403.1,M,48.9,M,,*46
$GPGGA,105009.00,3916.05455,N,00726.17949,W,1,04,4.28,402.9,M,48.9,M,,*4E
$GPGGA,105009.25,3916.05378,N,00726.17759,W,1,04,4.28,402.8,M,48.9,M,,*4F
$GPGGA,105009.50,3916.05314,N,00726.17562,W,1,04,4.28,402.8,M,48.9,M,,*4D
$GPGGA,105009.75,3916.05245,N,00726.17365,W,1,04,4.28,402.9,M,48.9,M,,*4F
$GPGGA,105010.00,3916.05174,N,00726.17158,W,1,04,4.28,402.8,M,48.9,M,,*49
$GPGGA,105010.25,3916.05098,N,00726.16950,W,1,04,4.28,402.7,M,48.9,M,,*43
$GPGGA,105010.50,3916.05035,N,00726.16742,W,1,04,4.28,402.7,M,48.9,M,,*4B
$GPGGA,105010.75,3916.04963,N,00726.16533,W,1,04,4.28,402.8,M,48.9,M,,*4C
$GPGGA,105011.00,3916.04910,N,00726.16324,W,1,04,4.28,403.0,M,48.9,M,,*42
$GPGGA,105011.25,3916.04859,N,00726.16107,W,1,04,4.28,402.9,M,48.9,M,,*42
$GPGGA,105011.50,3916.04802,N,00726.15891,W,1,04,4.28,402.9,M,48.9,M,,*4B
$GPGGA,105011.75,3916.04740,N,00726.15669,W,1,04,4.28,402.7,M,48.9,M,,*42
$GPGGA,105012.00,3916.04694,N,00726.15446,W,1,04,4.28,402.6,M,48.9,M,,*45
$GPGGA,105012.25,3916.04643,N,00726.15227,W,1,04,4.28,402.5,M,48.9,M,,*4A
$GPGGA,105012.50,3916.04598,N,00726.15002,W,1,04,4.28,402.1,M,48.9,M,,*4C
$GPGGA,105012.75,3916.04548,N,00726.14788,W,1,04,4.28,402.0,M,48.9,M,,*43
$GPGGA,105013.00,3916.04504,N,00726.14570,W,1,04,4.28,401.8,M,48.9,M,,*46
$GPGGA,105013.25,3916.04463,N,00726.14351,W,1,04,4.28,401.7,M,48.9,M,,*4B
$GPGGA,105013.50,3916.04417,N,00726.14134,W,1,04,4.28,401.5,M,48.9,M,,*49
$GPGGA,105013.75,3916.04375,N,00726.13912,W,1,04,4.28,401.3,M,48.9,M,,*40
$GPGGA,105014.00,3916.04331,N,00726.13695,W,1,04,4.28,401.0,M,48.9,M,,*46
$GPGGA,105014.25,3916.04288,N,00726.13477,W,1,04,4.28,400.8,M,48.9,M,,*45
$GPGGA,105014.50,3916.04288,N,00726.13261,W,1,04,4.28,401.0,M,48.9,M,,*4F
$GPGGA,105014.75,3916.04299,N,00726.13049,W,1,04,4.28,401.2,M,48.9,M,,*42
$GPGGA,105015.00,3916.04301,N,00726.12827,W,1,04,4.28,401.2,M,48.9,M,,*40
$GPGGA,105015.25,3916.04306,N,00726.12599,W,1,04,4.28,401.1,M,48.9,M,,*4B
$GPGGA,105015.50,3916.04299,N,00726.12371,W,1,04,4.28,401.0,M,48.9,M,,*4F
$GPGGA,105015.75,3916.04310,N,00726.12144,W,1,04,4.28,401.1,M,48.9,M,,*4D
$GPGGA,105016.00,3916.04305,N,00726.11915,W,1,04,4.28,400.9,M,48.9,M,,*4E
$GPGGA,105016.25,3916.04305,N,00726.11691,W,1,04,4.28,401.0,M,48.9,M,,*42
$GPGGA,105016.50,3916.04307,N,00726.11461,W,1,04,4.28,400.9,M,48.9,M,,*47
$GPGGA,105016.75,3916.04288,N,00726.11230,W,1,04,4.28,400.7,M,48.9,M,,*4A
$GPGGA,105017.00,3916.04279,N,00726.10998,W,1,04,4.28,400.6,M,48.9,M,,*4E
$GPGGA,105017.25,3916.04264,N,00726.10769,W,1,04,4.28,400.5,M,48.9,M,,*46
$GPGGA,105017.50,3916.04258,N,00726.10535,W,1,04,4.28,400.3,M,48.9,M,,*46
$GPGGA,105017.75,3916.04253,N,00726.10302,W,1,04,4.28,400.2,M,48.9,M,,*49
$GPGGA,105018.00,3916.04238,N,00726.10066,W,1,04,4.28,400.0,M,48.9,M,,*4A
$GPGGA,105018.25,3916.04230,N,00726.09831,W,1,04,4.28,399.9,M,48.9,M,,*49
$GPGGA,105018.50,3916.04218,N,00726.09592,W,1,04,4.28,399.7,M,48.9,M,,*4B
$GPGGA,105018.75,3916.04208,N,00726.09352,W,1,04,4.28,399.5,M,48.9,M,,*45
$GPGGA,105019.00,3916.04197,N,00726.09112,W,1,04,4.28,399.3,M,48.9,M,,*43
$GPGGA,105019.25,3916.04189,N,00726.08869,W,1,04,4.28,399.2,M,48.9,M,,*4E
$GPGGA,105019.50,3916.04180,N,00726.08629,W,1,04,4.28,399.0,M,48.9,M,,*4D
$GPGGA,105019.75,3916.04173,N,00726.08383,W,1,04,4.28,398.7,M,48.9,M,,*45
$GPGGA,105020.00,3916.04168,N,00726.08140,W,1,04,4.28,398.7,M,48.9,M,,*4A
$GPGGA,105020.25,3916.04160,N,00726.07896,W,1,04,4.28,398.5,M,48.9,M,,*4A
$GPGGA,105020.50,3916.04155,N,00726.07649,W,1,04,4.28,398.4,M,48.9,M,,*43
$GPGGA,105020.75,3916.04148,N,00726.07402,W,1,04,4.27,398.3,M,48.9,M,,*4D
$GPGGA,105021.00,3916.04144,N,00726.07153,W,1,04,4.27,398.2,M,48.9,M,,*42
$GPGGA,105021.25,3916.04135,N,00726.06905,W,1,04,4.27,398.1,M,48.9,M,,*4A
$GPGGA,105021.50,3916.04129,N,00726.06655,W,1,04,4.27,398.0,M,48.9,M,,*4E
$GPGGA,105021.75,3916.04123,N,00726.06401,W,1,04,4.27,397.8,M,48.9,M,,*47
$GPGGA,105022.00,3916.04115,N,00726.06148,W,1,04,4.27,397.6,M,48.9,M,,*45
$GPGGA,105022.25,3916.04109,N,00726.05895,W,1,04,4.27,397.5,M,48.9,M,,*46
$GPGGA,105022.50,3916.04101,N,00726.05640,W,1,04,4.27,397.3,M,48.9,M,,*4C
$GPGGA,105022.75,3916.04100,N,00726.05383,W,1,04,4.27,397.2,M,48.9,M,,*41
$GPGGA,105023.00,3916.04094,N,00726.05125,W,1,04,4.27,397.0,M,48.9,M,,*42
$GPGGA,105023.25,3916.04087,N,00726.04868,W,1,04,4.27,396.8,M,48.9,M,,*4F
$GPGGA,105023.50,3916.04080,N,00726.04608,W,1,04,4.27,396.8,M,48.9,M,,*42
$GPGGA,105023.75,3916.04075,N,00726.04347,W,1,04,4.27,396.5,M,48.9,M,,*4C
$GPGGA,105024.00,3916.04073,N,00726.04084,W,1,04,4.27,396.3,M,48.9,M,,*45
$GPGGA,105024.25,3916.04068,N,00726.03819,W,1,04,4.27,396.2,M,48.9,M,,*42
$GPGGA,105024.50,3916.04063,N,00726.03554,W,1,04,4.27,396.0,M,48.9,M,,*4D
$GPGGA,105024.75,3916.04060,N,00726.03290,W,1,04,4.27,395.9,M,48.9,M,,*4C
$GPGGA,105025.00,3916.04054,N,00726.03024,W,1,04,4.27,395.8,M,48.9,M,,*44
$GPGGA,105025.25,3916.04052,N,00726.02755,W,1,04,4.27,395.5,M,48.9,M,,*48
$GPGGA,105025.50,3916.04052,N,00726.02486,W,1,04,4.27,395.4,M,48.9,M,,*46
$GPGGA,105025.75,3916.04048,N,00726.02214,W,1,04,4.27,395.2,M,48.9,M,,*41
$GPGGA,105026.00,3916.04044,N,00726.01942,W,1,04,4.27,395.0,M,48.9,M,,*45
$GPGGA,105026.25,3916.04041,N,00726.01668,W,1,04,4.27,394.8,M,48.9,M,,*49
$GPGGA,105026.50,3916.04044,N,00726.01393,W,1,04,4.27,394.6,M,48.9,M,,*41
$GPGGA,105026.75,3916.04037,N,00726.01119,W,1,04,4.27,394.5,M,48.9,M,,*41
$GPGGA,105027.00,3916.04036,N,00726.00844,W,1,04,4.27,394.3,M,48.9,M,,*45
$GPGGA,105027.25,3916.04035,N,00726.00568,W,1,04,4.27,394.2,M,48.9,M,,*43
$GPGGA,105027.50,3916.04034,N,00726.00293,W,1,04,4.27,394.1,M,48.9,M,,*40
$GPGGA,105027.75,3916.04032,N,00726.00017,W,1,04,4.27,393.9,M,48.9,M,,*40
$GPGGA,105028.00,3916.04032,N,00725.99736,W,1,04,4.27,393.8,M,48.9,M,,*4B
$GPGGA,105028.25,3916.04031,N,00725.99457,W,1,04,4.27,393.5,M,48.9,M,,*46
$GPGGA,105028.50,3916.04030,N,00725.99177,W,1,04,4.27,393.4,M,48.9,M,,*43
$GPGGA,105028.75,3916.04025,N,00725.98903,W,1,04,4.27,393.3,M,48.9,M,,*4D
$GPGGA,105029.00,3916.04022,N,00725.98624,W,1,04,4.27,393.2,M,48.9,M,,*42
$GPGGA,105029.25,3916.04015,N,00725.98347,W,1,04,4.27,393.1,M,48.9,M,,*42
$GPGGA,105029.50,3916.04009,N,00725.98067,W,1,04,4.27,393.0,M,48.9,M,,*4D
$GPGGA,105029.75,3916.04002,N,00725.97787,W,1,04,4.27,392.8,M,48.9,M,,*4E
$GPGGA,105030.00,3916.03998,N,00725.97507,W,1,04,4.27,392.7,M,48.9,M,,*4C
$GPGGA,105030.25,3916.03992,N,00725.97226,W,1,04,4.27,392.7,M,48.9,M,,*45
$GPGGA,105030.50,3916.03991,N,00725.96945,W,1,04,4.27,392.6,M,48.9,M,,*4A
$GPGGA,105030.75,3916.03990,N,00725.96664,W,1,04,4.27,392.5,M,48.9,M,,*43
$GPGGA,105031.00,3916.03986,N,00725.96384,W,1,04,4.27,392.4,M,48.9,M,,*4D
$GPGGA,105031.25,3916.03983,N,00725.96101,W,1,04,4.27,392.4,M,48.9,M,,*40
$GPGGA,105031.50,3916.03980,N,00725.95818,W,1,04,4.27,392.3,M,48.9,M,,*44
$GPGGA,105031.75,3916.03980,N,00725.95533,W,1,04,4.27,392.2,M,48.9,M,,*46
$GPGGA,105032.00,3916.03977,N,00725.95250,W,1,04,4.27,392.1,M,48.9,M,,*4E
$GPGGA,105032.25,3916.03977,N,00725.94966,W,1,04,4.27,392.0,M,48.9,M,,*47
$GPGGA,105032.50,3916.03975,N,00725.94681,W,1,04,4.27,391.9,M,48.9,M,,*4B
$GPGGA,105032.75,3916.03974,N,00725.94398,W,1,04,4.27,391.7,M,48.9,M,,*4E
$GPGGA,105033.00,3916.03977,N,00725.94112,W,1,04,4.27,391.6,M,48.9,M,,*4F
$GPGGA,105033.25,3916.03974,N,00725.93828,W,1,04,4.27,391.4,M,48.9,M,,*4E
$GPGGA,105033.50,3916.03978,N,00725.93542,W,1,04,4.27,391.3,M,48.9,M,,*46
$GPGGA,105033.75,3916.03978,N,00725.93257,W,1,04,4.27,391.2,M,48.9,M,,*43
$GPGGA,105034.00,3916.03980,N,00725.92973,W,1,04,4.27,391.0,M,48.9,M,,*4F
$GPGGA,105034.25,3916.03980,N,00725.92690,W,1,04,4.27,390.8,M,48.9,M,,*43
$GPGGA,105034.50,3916.03983,N,00725.92410,W,1,04,4.27,390.7,M,48.9,M,,*47
$GPGGA,105034.75,3916.03985,N,00725.92132,W,1,04,4.27,390.7,M,48.9,M,,*43
$GPGGA,105035.00,3916.03987,N,00725.91855,W,1,04,4.27,390.6,M,48.9,M,,*48
$GPGGA,105035.25,3916.03987,N,00725.91582,W,1,04,4.27,390.5,M,48.9,M,,*4B
$GPGGA,105035.50,3916.03991,N,00725.91309,W,1,04,4.27,390.4,M,48.9,M,,*4A
$GPGGA,105035.75,3916.03992,N,00725.91038,W,1,04,4.27,390.3,M,48.9,M,,*48
$GPGGA,105036.00,3916.03996,N,00725.90770,W,1,04,4.27,390.2,M,48.9,M,,*46
$GPGGA,105036.25,3916.03998,N,00725.90503,W,1,04,4.27,390.2,M,48.9,M,,*49
$GPGGA,105036.50,3916.03998,N,00725.90237,W,1,04,4.27,390.1,M,48.9,M,,*48
$GPGGA,105036.75,3916.04001,N,00725.89973,W,1,04,4.27,390.0,M,48.9,M,,*43
$GPGGA,105037.00,3916.04002,N,00725.89711,W,1,04,4.27,389.9,M,48.9,M,,*48
$GPGGA,105037.25,3916.04002,N,00725.89451,W,1,04,4.27,389.8,M,48.9,M,,*49
$GPGGA,105037.50,3916.04004,N,00725.89193,W,1,04,4.27,389.8,M,48.9,M,,*46
$GPGGA,105037.75,3916.04005,N,00725.88933,W,1,04,4.27,389.8,M,48.9,M,,*43
$GPGGA,105038.00,3916.04008,N,00725.88677,W,1,04,4.27,389.7,M,48.9,M,,*43
$GPGGA,105038.25,3916.04012,N,00725.88420,W,1,04,4.27,389.7,M,48.9,M,,*4F
$GPGGA,105038.50,3916.04012,N,00725.88166,W,1,04,4.27,389.6,M,48.9,M,,*4B
$GPGGA,105038.75,3916.04015,N,00725.87909,W,1,04,4.27,389.5,M,48.9,M,,*46
$GPGGA,105039.00,3916.04018,N,00725.87653,W,1,04,4.27,389.4,M,48.9,M,,*49
$GPGGA,105039.25,3916.04021,N,00725.87400,W,1,04,4.27,389.4,M,48.9,M,,*40
$GPGGA,105039.50,3916.04023,N,00725.87150,W,1,04,4.27,389.3,M,48.9,M,,*47
$GPGGA,105039.75,3916.04027,N,00725.86901,W,1,04,4.27,389.3,M,48.9,M,,*49
$GPGGA,105040.00,3916.04029,N,00725.86655,W,1,04,4.27,389.3,M,48.9,M,,*45
$GPGGA,105040.25,3916.04030,N,00725.86411,W,1,04,4.27,389.2,M,48.9,M,,*49
$GPGGA,105040.50,3916.04034,N,00725.86169,W,1,04,4.27,389.2,M,48.9,M,,*45
$GPGGA,105040.75,3916.04038,N,00725.85929,W,1,04,4.27,389.1,M,48.9,M,,*42
$GPGGA,105041.00,3916.04040,N,00725.85692,W,1,04,4.27,389.0,M,48.9,M,,*40
$GPGGA,105041.25,3916.04041,N,00725.85460,W,1,04,4.27,388.9,M,48.9,M,,*41
$GPGGA,105041.50,3916.04042,N,00725.85233,W,1,04,4.27,388.9,M,48.9,M,,*40
$GPGGA,105041.75,3916.04045,N,00725.85015,W,1,04,4.27,388.8,M,48.9,M,,*47
$GPGGA,105042.00,3916.04048,N,00725.84806,W,1,04,4.27,388.8,M,48.9,M,,*40
$GPGGA,105042.25,3916.04052,N,00725.84603,W,1,04,4.27,388.7,M,48.9,M,,*48
$GPGGA,105042.50,3916.04052,N,00725.84412,W,1,04,4.27,388.6,M,48.9,M,,*49
$GPGGA,105042.75,3916.04053,N,00725.84228,W,1,04,4.27,388.5,M,48.9,M,,*43
$GPGGA,105043.00,3916.04056,N,00725.84056,W,1,04,4.26,388.3,M,48.9,M,,*49
$GPGGA,105043.25,3916.04054,N,00725.83893,W,1,04,4.26,388.1,M,48.9,M,,*48
$GPGGA,105043.50,3916.04056,N,00725.83740,W,1,04,4.26,387.8,M,48.9,M,,*4F
$GPGGA,105043.75,3916.04060,N,00725.83604,W,1,04,4.26,387.6,M,48.9,M,,*42
$GPGGA,105044.00,3916.04061,N,00725.83477,W,1,04,4.26,387.3,M,48.9,M,,*45
$GPGGA,105044.25,3916.04065,N,00725.83359,W,1,04,4.26,386.9,M,48.9,M,,*46
$GPGGA,105044.50,3916.04067,N,00725.83257,W,1,04,4.26,386.6,M,48.9,M,,*46
$GPGGA,105044.75,3916.04068,N,00725.83171,W,1,04,4.26,386.3,M,48.9,M,,*4C
$GPGGA,105045.00,3916.04069,N,00725.83095,W,1,04,4.26,386.1,M,48.9,M,,*47
$GPGGA,105045.25,3916.04069,N,00725.83028,W,1,04,4.26,385.8,M,48.9,M,,*4C
$GPGGA,105045.50,3916.04070,N,00725.82977,W,1,04,4.26,385.7,M,48.9,M,,*4B
$GPGGA,105045.75,3916.04068,N,00725.82931,W,1,04,4.26,385.6,M,48.9,M,,*46
$GPGGA,105046.00,3916.04066,N,00725.82891,W,1,04,4.26,385.6,M,48.9,M,,*42
$GPGGA,105046.25,3916.04065,N,00725.82853,W,1,04,4.26,385.5,M,48.9,M,,*4B
$GPGGA,105046.50,3916.04063,N,00725.82818,W,1,04,4.26,385.4,M,48.9,M,,*41
$GPGGA,105046.75,3916.04063,N,00725.82786,W,1,04,4.26,385.3,M,48.9,M,,*49
$GPGGA,105047.00,3916.04059,N,00725.82756,W,1,04,4.26,385.1,M,48.9,M,,*4C
$GPGGA,105047.25,3916.04054,N,00725.82737,W,1,04,4.26,385.1,M,48.9,M,,*41
$GPGGA,105047.50,3916.04053,N,00725.82719,W,1,04,4.26,385.1,M,48.9,M,,*48
$GPGGA,105047.75,3916.04048,N,00725.82702,W,1,04,4.26,385.0,M,48.9,M,,*4E
$GPGGA,105048.00,3916.04048,N,00725.82685,W,1,04,4.26,384.8,M,48.9,M,,*44
$GPGGA,105048.25,3916.04043,N,00725.82670,W,1,04,4.26,384.6,M,48.9,M,,*4C
$GPGGA,105048.50,3916.04044,N,00725.82658,W,1,04,4.26,384.3,M,48.9,M,,*46
$GPGGA,105048.75,3916.04038,N,00725.82656,W,1,04,4.26,384.1,M,48.9,M,,*46
$GPGGA,105049.00,3916.04035,N,00725.82653,W,1,04,4.26,383.9,M,48.9,M,,*42
$GPGGA,105049.25,3916.04029,N,00725.82651,W,1,04,4.26,383.7,M,48.9,M,,*44
$GPGGA,105049.50,3916.04023,N,00725.82651,W,1,04,4.26,383.5,M,48.9,M,,*4E
$GPGGA,105049.75,3916.04018,N,00725.82651,W,1,04,4.26,383.4,M,48.9,M,,*40
$GPGGA,105050.00,3916.04014,N,00725.82651,W,1,04,4.26,383.3,M,48.9,M,,*41
$GPGGA,105050.25,3916.04011,N,00725.82650,W,1,04,4.26,383.2,M,48.9,M,,*43
$GPGGA,105050.50,3916.04006,N,00725.82649,W,1,04,4.26,383.1,M,48.9,M,,*4C
$GPGGA,105050.75,3916.04002,N,00725.82647,W,1,04,4.26,383.0,M,48.9,M,,*40
$GPGGA,105051.00,3916.04000,N,00725.82641,W,1,04,4.26,382.9,M,48.9,M,,*4F
$GPGGA,105051.25,3916.03997,N,00725.82630,W,1,04,4.26,382.9,M,48.9,M,,*4E
$GPGGA,105051.50,3916.03994,N,00725.82610,W,1,04,4.26,383.0,M,48.9,M,,*45
$GPGGA,105051.75,3916.03993,N,00725.82580,W,1,04,4.26,383.0,M,48.9,M,,*4F
$GPGGA,105052.00,3916.03996,N,00725.82539,W,1,04,4.26,383.0,M,48.9,M,,*49
$GPGGA,105052.25,3916.03997,N,00725.82489,W,1,04,4.26,383.0,M,48.9,M,,*45
$GPGGA,105052.50,3916.04000,N,00725.82431,W,1,04,4.26,383.1,M,48.9,M,,*45
$GPGGA,105052.75,3916.04003,N,00725.82365,W,1,04,4.26,383.1,M,48.9,M,,*47
$GPGGA,105053.00,3916.04006,N,00725.82294,W,1,04,4.26,383.1,M,48.9,M,,*4E
$GPGGA,105053.25,3916.04008,N,00725.82219,W,1,04,4.26,383.2,M,48.9,M,,*41
$GPGGA,105053.50,3916.04008,N,00725.82137,W,1,04,4.26,383.1,M,48.9,M,,*4F
$GPGGA,105053.75,3916.04009,N,00725.82047,W,1,04,4.26,383.2,M,48.9,M,,*4C
$GPGGA,105054.00,3916.04014,N,00725.81949,W,1,04,4.26,383.2,M,48.9,M,,*41
$GPGGA,105054.25,3916.04016,N,00725.81844,W,1,04,4.26,383.3,M,48.9,M,,*49
$GPGGA,105054.50,3916.04019,N,00725.81730,W,1,04,4.26,383.3,M,48.9,M,,*48
$GPGGA,105054.75,3916.04022,N,00725.81623,W,1,04,4.26,383.6,M,48.9,M,,*41
$GPGGA,105055.00,3916.04005,N,00725.81523,W,1,04,4.26,383.1,M,48.9,M,,*43
$GPGGA,105055.25,3916.03986,N,00725.81421,W,1,04,4.26,382.6,M,48.9,M,,*44
$GPGGA,105055.50,3916.03977,N,00725.81314,W,1,04,4.26,382.0,M,48.9,M,,*4F
$GPGGA,105055.75,3916.03970,N,00725.81206,W,1,04,4.26,381.3,M,48.9,M,,*4D
$GPGGA,105056.00,3916.03963,N,00725.81095,W,1,04,4.26,380.6,M,48.9,M,,*42
$GPGGA,105056.25,3916.03958,N,00725.80979,W,1,04,4.26,379.9,M,48.9,M,,*4E
$GPGGA,105056.50,3916.03955,N,00725.80856,W,1,04,4.26,379.0,M,48.9,M,,*44
$GPGGA,105056.75,3916.03956,N,00725.80731,W,1,04,4.26,378.3,M,48.9,M,,*4C
$GPGGA,105057.00,3916.03956,N,00725.80601,W,1,04,4.26,377.5,M,48.9,M,,*44
$GPGGA,105057.25,3916.03953,N,00725.80469,W,1,04,4.26,376.9,M,48.9,M,,*47
$GPGGA,105057.50,3916.03951,N,00725.80331,W,1,04,4.26,376.3,M,48.9,M,,*47
$GPGGA,105057.75,3916.03952,N,00725.80190,W,1,04,4.26,375.7,M,48.9,M,,*4D
$GPGGA,105058.00,3916.03948,N,00725.80044,W,1,04,4.26,375.2,M,48.9,M,,*46
$GPGGA,105058.25,3916.03946,N,00725.79896,W,1,04,4.26,374.7,M,48.9,M,,*4A
$GPGGA,105058.50,3916.03942,N,00725.79745,W,1,04,4.26,374.3,M,48.9,M,,*49
$GPGGA,105058.75,3916.03942,N,00725.79594,W,1,04,4.26,374.0,M,48.9,M,,*43
$GPGGA,105059.00,3916.03978,N,00725.79410,W,1,04,4.26,375.0,M,48.9,M,,*45
$GPGGA,105059.25,3916.04011,N,00725.79232,W,1,04,4.26,375.8,M,48.9,M,,*4D
$GPGGA,105059.50,3916.04035,N,00725.79062,W,1,04,4.26,376.2,M,48.9,M,,*47
$GPGGA,105059.75,3916.04055,N,00725.78900,W,1,04,4.26,376.6,M,48.9,M,,*4E
$GPGGA,105100.00,3916.04069,N,00725.78738,W,1,04,4.26,376.8,M,48.9,M,,*45
$GPGGA,105100.25,3916.04122,N,00725.78584,W,1,05,3.00,377.5,M,48.9,M,,*47
$GPGGA,105100.50,3916.04140,N,00725.78429,W,1,05,2.99,377.6,M,48.9,M,,*45
$GPGGA,105100.75,3916.04147,N,00725.78271,W,1,05,2.99,377.4,M,48.9,M,,*4C
$GPGGA,105101.00,3916.04148,N,00725.78109,W,1,05,2.99,377.1,M,48.9,M,,*49
$GPGGA,105101.25,3916.04144,N,00725.77952,W,1,05,2.99,376.7,M,48.9,M,,*4C
$GPGGA,105101.50,3916.04138,N,00725.77792,W,1,05,2.99,376.1,M,48.9,M,,*41
$GPGGA,105101.75,3916.04136,N,00725.77634,W,1,05,2.99,375.8,M,48.9,M,,*4F
$GPGGA,105102.00,3916.04128,N,00725.77472,W,1,05,2.99,375.4,M,48.9,M,,*4D
$GPGGA,105102.25,3916.04112,N,00725.77306,W,1,05,2.99,374.9,M,48.9,M,,*4B
$GPGGA,105102.50,3916.04096,N,00725.77134,W,1,05,2.99,374.5,M,48.9,M,,*4B
$GPGGA,105102.75,3916.04075,N,00725.76957,W,1,05,2.99,373.9,M,48.9,M,,*46
$GPGGA,105103.00,3916.04053,N,00725.76779,W,1,05,2.99,373.4,M,48.9,M,,*4E
$GPGGA,105103.25,3916.04027,N,00725.76601,W,1,05,2.99,373.0,M,48.9,M,,*40
$GPGGA,105103.50,3916.03983,N,00725.76421,W,1,05,2.99,372.4,M,48.9,M,,*47
$GPGGA,105103.75,3916.03949,N,00725.76246,W,1,05,2.99,372.0,M,48.9,M,,*45
$GPGGA,105104.00,3916.03917,N,00725.76070,W,1,05,2.99,371.7,M,48.9,M,,*48
$GPGGA,105104.25,3916.03882,N,00725.75897,W,1,05,2.99,371.4,M,48.9,M,,*43
$GPGGA,105104.50,3916.03853,N,00725.75722,W,1,05,2.99,371.0,M,48.9,M,,*48
$GPGGA,105104.75,3916.03823,N,00725.75547,W,1,05,2.99,370.8,M,48.9,M,,*40
$GPGGA,105105.00,3916.03796,N,00725.75372,W,1,05,2.99,370.4,M,48.9,M,,*4E
$GPGGA,105105.25,3916.03778,N,00725.75197,W,1,05,2.99,370.1,M,48.9,M,,*45
$GPGGA,105105.50,3916.03769,N,00725.75022,W,1,05,2.99,370.0,M,48.9,M,,*49
$GPGGA,105105.75,3916.03769,N,00725.74848,W,1,05,2.99,369.9,M,48.9,M,,*4A
$GPGGA,105106.00,3916.03775,N,00725.74675,W,1,05,2.99,369.8,M,48.9,M,,*47
$GPGGA,105106.25,3916.03791,N,00725.74505,W,1,05,2.99,369.7,M,48.9,M,,*41
$GPGGA,105106.50,3916.03815,N,00725.74335,W,1,05,2.99,369.7,M,48.9,M,,*45
$GPGGA,105106.75,3916.03841,N,00725.74164,W,1,05,2.99,369.6,M,48.9,M,,*44
$GPGGA,105107.00,3916.03867,N,00725.73990,W,1,05,2.99,369.5,M,48.9,M,,*44
$GPGGA,105107.25,3916.03888,N,00725.73818,W,1,05,2.99,369.4,M,48.9,M,,*42
$GPGGA,105107.50,3916.03911,N,00725.73643,W,1,05,2.99,369.3,M,48.9,M,,*46
$GPGGA,105107.75,3916.03935,N,00725.73467,W,1,05,2.99,369.3,M,48.9,M,,*43
$GPGGA,105108.00,3916.03953,N,00725.73287,W,1,05,2.99,369.3,M,48.9,M,,*46
$GPGGA,105108.25,3916.03970,N,00725.73105,W,1,05,2.99,369.3,M,48.9,M,,*49
$GPGGA,105108.50,3916.03988,N,00725.72919,W,1,05,2.99,369.3,M,48.9,M,,*48
$GPGGA,105108.75,3916.03999,N,00725.72717,W,1,05,2.99,369.4,M,48.9,M,,*48
$GPGGA,105109.00,3916.04006,N,00725.72509,W,1,05,2.99,369.5,M,48.9,M,,*4F
$GPGGA,105109.25,3916.04011,N,00725.72297,W,1,05,2.99,369.6,M,48.9,M,,*4D
$GPGGA,105109.50,3916.04016,N,00725.72085,W,1,05,2.99,369.7,M,48.9,M,,*48
$GPGGA,105109.75,3916.04022,N,00725.71864,W,1,05,2.99,369.6,M,48.9,M,,*4D
$GPGGA,105110.00,3916.04029,N,00725.71642,W,1,05,2.99,369.7,M,48.9,M,,*47
$GPGGA,105110.25,3916.04037,N,00725.71419,W,1,05,2.99,369.8,M,48.9,M,,*4C
$GPGGA,105110.50,3916.04044,N,00725.71191,W,1,05,2.99,369.9,M,48.9,M,,*4E
$GPGGA,105110.75,3916.04048,N,00725.70964,W,1,05,2.99,370.0,M,48.9,M,,*47
$GPGGA,105111.00,3916.04053,N,00725.70730,W,1,05,2.99,370.0,M,48.9,M,,*41
$GPGGA,105111.25,3916.04054,N,00725.70497,W,1,05,2.99,370.0,M,48.9,M,,*4F
$GPGGA,105111.50,3916.04057,N,00725.70259,W,1,05,2.99,370.1,M,48.9,M,,*4B
$GPGGA,105111.75,3916.04065,N,00725.70024,W,1,05,2.99,370.3,M,48.9,M,,*47
$GPGGA,105112.00,3916.04073,N,00725.69783,W,1,05,2.98,370.4,M,48.9,M,,*45
$GPGGA,105112.25,3916.04084,N,00725.69541,W,1,05,2.98,370.5,M,48.9,M,,*47
$GPGGA,105112.50,3916.04092,N,00725.69297,W,1,05,2.98,370.7,M,48.9,M,,*4C
$GPGGA,105112.75,3916.04100,N,00725.69050,W,1,05,2.98,370.9,M,48.9,M,,*46
$GPGGA,105113.00,3916.04110,N,00725.68798,W,1,05,2.98,371.0,M,48.9,M,,*4E
$GPGGA,105113.25,3916.04119,N,00725.68546,W,1,05,2.98,371.1,M,48.9,M,,*40
$GPGGA,105113.50,3916.04125,N,00725.68295,W,1,05,2.98,371.3,M,48.9,M,,*46
$GPGGA,105113.75,3916.04134,N,00725.68036,W,1,05,2.98,371.4,M,48.9,M,,*4D
$GPGGA,105114.00,3916.04140,N,00725.67777,W,1,05,2.98,371.5,M,48.9,M,,*47
$GPGGA,105114.25,3916.04150,N,00725.67520,W,1,05,2.98,371.7,M,48.9,M,,*43
$GPGGA,105114.50,3916.04159,N,00725.67255,W,1,05,2.98,371.9,M,48.9,M,,*43
$GPGGA,105114.75,3916.04167,N,00725.66994,W,1,05,2.98,372.1,M,48.9,M,,*45
$GPGGA,105115.00,3916.04177,N,00725.66729,W,1,05,2.98,372.3,M,48.9,M,,*4D
$GPGGA,105115.25,3916.04185,N,00725.66463,W,1,05,2.98,372.5,M,48.9,M,,*4C
$GPGGA,105115.50,3916.04192,N,00725.66196,W,1,05,2.98,372.8,M,48.9,M,,*4A
$GPGGA,105115.75,3916.04202,N,00725.65928,W,1,05,2.98,373.1,M,48.9,M,,*41
$GPGGA,105116.00,3916.04207,N,00725.65659,W,1,05,2.98,373.4,M,48.9,M,,*49
$GPGGA,105116.25,3916.04216,N,00725.65386,W,1,05,2.98,373.6,M,48.9,M,,*4B
$GPGGA,105116.50,3916.04225,N,00725.65114,W,1,05,2.98,373.9,M,48.9,M,,*4F
$GPGGA,105116.75,3916.04232,N,00725.64840,W,1,05,2.98,374.1,M,48.9,M,,*48
$GPGGA,105117.00,3916.04238,N,00725.64566,W,1,05,2.98,374.3,M,48.9,M,,*4A
$GPGGA,105117.25,3916.04249,N,00725.64293,W,1,05,2.98,374.4,M,48.9,M,,*41
$GPGGA,105117.50,3916.04256,N,00725.64024,W,1,05,2.98,374.6,M,48.9,M,,*41
$GPGGA,105117.75,3916.04264,N,00725.63759,W,1,05,2.98,374.8,M,48.9,M,,*43
$GPGGA,105118.00,3916.04267,N,00725.63500,W,1,05,2.98,375.0,M,48.9,M,,*4A
$GPGGA,105118.25,3916.04273,N,00725.63242,W,1,05,2.98,375.2,M,48.9,M,,*4B
$GPGGA,105118.50,3916.04279,N,00725.62986,W,1,05,2.98,375.4,M,48.9,M,,*47
$GPGGA,105118.75,3916.04285,N,00725.62736,W,1,05,2.98,375.6,M,48.9,M,,*44
$GPGGA,105119.00,3916.04294,N,00725.62490,W,1,05,2.98,375.9,M,48.9,M,,*47
$GPGGA,105119.25,3916.04302,N,00725.62246,W,1,05,2.98,376.2,M,48.9,M,,*4B
$GPGGA,105119.50,3916.04309,N,00725.62005,W,1,05,2.98,376.4,M,48.9,M,,*41
$GPGGA,105119.75,3916.04316,N,00725.61762,W,1,05,2.98,376.6,M,48.9,M,,*4F
$GPGGA,105120.00,3916.04321,N,00725.61525,W,1,05,2.98,376.8,M,48.9,M,,*4C
$GPGGA,105120.25,3916.04327,N,00725.61290,W,1,05,2.98,377.1,M,48.9,M,,*4C
$GPGGA,105120.50,3916.04335,N,00725.61057,W,1,05,2.98,377.3,M,48.9,M,,*46
$GPGGA,105120.75,3916.04343,N,00725.60824,W,1,05,2.98,377.5,M,48.9,M,,*4B
$GPGGA,105121.00,3916.04349,N,00725.60591,W,1,05,2.98,377.7,M,48.9,M,,*43
$GPGGA,105121.25,3916.04355,N,00725.60362,W,1,05,2.98,377.9,M,48.9,M,,*4D
$GPGGA,105121.50,3916.04361,N,00725.60133,W,1,05,2.98,378.0,M,48.9,M,,*48
$GPGGA,105121.75,3916.04367,N,00725.59904,W,1,05,2.98,378.2,M,48.9,M,,*4D
$GPGGA,105122.00,3916.04374,N,00725.59680,W,1,05,2.98,378.3,M,48.9,M,,*4C
$GPGGA,105122.25,3916.04379,N,00725.59456,W,1,05,2.98,378.5,M,48.9,M,,*49
$GPGGA,105122.50,3916.04387,N,00725.59232,W,1,05,2.98,378.7,M,48.9,M,,*4C
$GPGGA,105122.75,3916.04395,N,00725.59009,W,1,05,2.98,378.8,M,48.9,M,,*4D
$GPGGA,105123.00,3916.04402,N,00725.58787,W,1,05,2.98,378.9,M,48.9,M,,*46
$GPGGA,105123.25,3916.04409,N,00725.58565,W,1,05,2.98,379.0,M,48.9,M,,*4C
$GPGGA,105123.50,3916.04417,N,00725.58342,W,1,05,2.97,379.0,M,48.9,M,,*4D
$GPGGA,105123.75,3916.04425,N,00725.58122,W,1,05,2.97,379.1,M,48.9,M,,*4E
$GPGGA,105124.00,3916.04432,N,00725.57906,W,1,05,2.97,379.2,M,48.9,M,,*4F
$GPGGA,105124.25,3916.04438,N,00725.57692,W,1,05,2.97,379.3,M,48.9,M,,*41
$GPGGA,105124.50,3916.04446,N,00725.57480,W,1,05,2.97,379.4,M,48.9,M,,*4C
$GPGGA,105124.75,3916.04453,N,00725.57268,W,1,05,2.97,379.4,M,48.9,M,,*4F
$GPGGA,105125.00,3916.04459,N,00725.57059,W,1,05,2.97,379.4,M,48.9,M,,*46
$GPGGA,105125.25,3916.04465,N,00725.56851,W,1,05,2.97,379.5,M,48.9,M,,*4E
$GPGGA,105125.50,3916.04472,N,00725.56643,W,1,05,2.97,379.5,M,48.9,M,,*47
$GPGGA,105125.75,3916.04477,N,00725.56437,W,1,05,2.97,379.6,M,48.9,M,,*47
$GPGGA,105126.00,3916.04483,N,00725.56231,W,1,05,2.97,379.6,M,48.9,M,,*4D
$GPGGA,105126.25,3916.04488,N,00725.56027,W,1,05,2.97,379.5,M,48.9,M,,*47
$GPGGA,105126.50,3916.04493,N,00725.55827,W,1,05,2.97,379.6,M,48.9,M,,*47
$GPGGA,105126.75,3916.04498,N,00725.55629,W,1,05,2.97,379.6,M,48.9,M,,*4B
$GPGGA,105127.00,3916.04503,N,00725.55432,W,1,05,2.97,379.5,M,48.9,M,,*40
$GPGGA,105127.25,3916.04510,N,00725.55240,W,1,05,2.97,379.6,M,48.9,M,,*45
$GPGGA,105127.50,3916.04516,N,00725.55048,W,1,05,2.97,379.6,M,48.9,M,,*4B
$GPGGA,105127.75,3916.04522,N,00725.54858,W,1,05,2.97,379.7,M,48.9,M,,*42
$GPGGA,105128.00,3916.04528,N,00725.54669,W,1,05,2.97,379.7,M,48.9,M,,*49
$GPGGA,105128.25,3916.04531,N,00725.54483,W,1,05,2.97,379.7,M,48.9,M,,*40
$GPGGA,105128.50,3916.04532,N,00725.54292,W,1,05,2.97,379.8,M,48.9,M,,*48
$GPGGA,105128.75,3916.04535,N,00725.54101,W,1,05,2.97,379.8,M,48.9,M,,*41
$GPGGA,105129.00,3916.04541,N,00725.53927,W,1,05,2.97,379.8,M,48.9,M,,*4A
$GPGGA,105129.25,3916.04548,N,00725.53752,W,1,05,2.97,379.8,M,48.9,M,,*48
$GPGGA,105129.50,3916.04554,N,00725.53582,W,1,05,2.97,379.8,M,48.9,M,,*48
$GPGGA,105129.75,3916.04559,N,00725.53416,W,1,05,2.97,379.7,M,48.9,M,,*41
$GPGGA,105130.00,3916.04562,N,00725.53257,W,1,05,2.97,379.7,M,48.9,M,,*40
$GPGGA,105130.25,3916.04560,N,00725.53102,W,1,05,2.97,379.7,M,48.9,M,,*46
$GPGGA,105130.50,3916.04553,N,00725.52953,W,1,05,2.97,379.7,M,48.9,M,,*49
$GPGGA,105130.75,3916.04543,N,00725.52812,W,1,05,2.97,379.7,M,48.9,M,,*4B
$GPGGA,105131.00,3916.04521,N,00725.52677,W,1,05,2.97,379.7,M,48.9,M,,*41
$GPGGA,105131.25,3916.04494,N,00725.52554,W,1,05,2.97,379.8,M,48.9,M,,*44
$GPGGA,105131.50,3916.04460,N,00725.52436,W,1,05,2.97,379.8,M,48.9,M,,*48
$GPGGA,105131.75,3916.04420,N,00725.52324,W,1,05,2.97,379.8,M,48.9,M,,*4F
$GPGGA,105132.00,3916.04373,N,00725.52218,W,1,05,2.97,379.8,M,48.9,M,,*41
$GPGGA,105132.25,3916.04321,N,00725.52121,W,1,05,2.97,380.0,M,48.9,M,,*46
$GPGGA,105132.50,3916.04251,N,00725.52008,W,1,05,2.97,380.2,M,48.9,M,,*4A
$GPGGA,105132.75,3916.04175,N,00725.51896,W,1,05,2.97,380.3,M,48.9,M,,*45
$GPGGA,105133.00,3916.04091,N,00725.51790,W,1,05,2.97,380.5,M,48.9,M,,*42
$GPGGA,105133.25,3916.04003,N,00725.51689,W,1,05,2.97,380.6,M,48.9,M,,*44
$GPGGA,105133.50,3916.03906,N,00725.51596,W,1,05,2.97,380.9,M,48.9,M,,*4F
$GPGGA,105133.75,3916.03804,N,00725.51506,W,1,05,2.97,381.0,M,48.9,M,,*4A
$GPGGA,105134.00,3916.03697,N,00725.51419,W,1,05,2.97,381.1,M,48.9,M,,*45
$GPGGA,105134.25,3916.03584,N,00725.51331,W,1,05,2.97,381.1,M,48.9,M,,*4E
$GPGGA,105134.50,3916.03506,N,00725.51252,W,1,05,2.97,381.5,M,48.9,M,,*46
$GPGGA,105134.75,3916.03426,N,00725.51176,W,1,05,2.97,382.0,M,48.9,M,,*41
$GPGGA,105135.00,3916.03344,N,00725.51098,W,1,05,2.96,382.5,M,48.9,M,,*44
$GPGGA,105135.25,3916.03262,N,00725.51018,W,1,05,2.96,383.0,M,48.9,M,,*4A
$GPGGA,105135.50,3916.03173,N,00725.50936,W,1,05,2.96,383.5,M,48.9,M,,*4A
$GPGGA,105135.75,3916.03082,N,00725.50848,W,1,05,2.96,383.9,M,48.9,M,,*46
$GPGGA,105136.00,3916.02989,N,00725.50758,W,1,05,2.96,384.4,M,48.9,M,,*40
$GPGGA,105136.25,3916.02894,N,00725.50666,W,1,05,2.96,384.8,M,48.9,M,,*4A
$GPGGA,105136.50,3916.02795,N,00725.50569,W,1,05,2.96,385.2,M,48.9,M,,*41
$GPGGA,105136.75,3916.02689,N,00725.50465,W,1,05,2.96,385.5,M,48.9,M,,*40
$GPGGA,105137.00,3916.02571,N,00725.50357,W,1,05,2.96,385.6,M,48.9,M,,*42
$GPGGA,105137.25,3916.02381,N,00725.50252,W,1,05,2.96,384.5,M,48.9,M,,*4A
$GPGGA,105137.50,3916.02209,N,00725.50144,W,1,05,2.96,383.8,M,48.9,M,,*47
